{
	"data": [{
		"Name": "南岳杏湾渔港",
		"INITDATE": "2021/10/18 8:00:00",
		"LON": "121.1",
		"LAT": "28.18"
	}, {
		"Name": "南麂渔港      ",
		"LON": "121.06",
		"LAT": "27.48"
	}, {
		
		
		"PubDateTime": "2021/10/18 6:00:00",
		"Name": "灵昆渔港",
		"LON": "120.88",
		"LAT": "27.96"
	}, {
		
		"Name": "蓝田渔港      ",
		"INITDATE": "2021/10/18 8:00:00",
		"LON": "120.85",
		"LAT": "27.95"
	}, {
		
		"PubDateTime": "2021/10/18 6:00:00",
		
		"Name": "西湾渔港      ",
		
		"LON": "120.68",
		"LAT": "27.63"
	}, {
	
		
		"Name": "大渔渔港      ",
		"INITDATE": "2021/10/18 8:00:00",
		"LON": "120.61",
		"LAT": "27.39"
	}, {
		
		"PubDateTime": "2021/10/18 6:00:00",
		"Name": "炎亭渔港 ",
		"LON": "120.65",
		"LAT": "27.45"
	}, {
		"Name": "东沙渔港      ",
		"INITDATE": "2021/10/18 8:00:00",
		"LON": "121.17",
		"LAT": "27.8"
	}, {
		"PubDateTime": "2021/10/18 6:00:00",
		"Name": "北麂渔港      ",
		"LON": "121.2",
		"LAT": "27.63"
	}, {
		
		"PubDateTime": "2021/10/18 6:00:00",
		"Name": "北龙渔港",
		"LON": "120.97",
		"LAT": "27.67"
	}, {
		"PubDateTime": "2021/10/18 6:00:00",
		"Name": "东山埠渔港下埠港区",
		"LON": "120.64",
		"LAT": "27.75"
	}, {
		"PubDateTime": "2021/10/18 6:00:00",
		"Name": "鹿西渔港",
		"LON": "121.17",
		"LAT": "27.98"
	}, {
		"PubDateTime": "2021/10/18 6:00:00",
		"Name": "下厂渔港",
		"LON": "120.58",
		"LAT": "27.59"
	}, {
		
		"PubDateTime": "2021/10/18 6:00:00",
		"Name": "霞关渔港",
		"LON": "120.45",
		"LAT": "27.17"
	}, {
		"PubDateTime": "2021/10/18 6:00:00",
		"Name": "三盘渔港",
		"LON": "121.12",
		"LAT": "27.87"
	}, {
		"PubDateTime": "2021/10/18 6:00:00",
		"Name": "中墩渔港",
		"LON": "120.54",
		"LAT": "27.35"
	}, {
		"PubDateTime": "2021/10/18 6:00:00",
		"Name": "石砰渔港",
		"LON": "120.65",
		"LAT": "27.41"
	}, {
		"PubDateTime": "2021/10/18 6:00:00",
		"Name": "温州（洞头）中心渔港",
		"LON": "121.1",
		"LAT": "27.83"
	}, {
		"PubDateTime": "2021/10/18 6:00:00",
		"Name": "美岙渔港      ",

		"LON": "121.13",
		"LAT": "27.98"
	}]
}